[
   {
      "id":2063,
      "name":"The Capital Grille - Miami",
      "address":"444 Brickell Avenue",
      "city":"Miami",
      "state":"FL",
      "area":"Miami / Southeast Florida",
      "postal_code":"33131",
      "country":"US",
      "phone":"3053744500x",
      "lat":25.769096,
      "long":-80.190251,
      "price":4,
      "cuisines":[
                  "Steak",
                  "Burgers"
                  ],
      "reserve_url":"http://www.opentable.com/single.aspx?rid=2063",
      "mobile_reserve_url":"http://mobile.opentable.com/opentable/?restId=2063",
      "image_url":"https://resizer.otstatic.com/v2/profiles/legacy/2063.jpg"
   },
   {
      "id":148015,
      "name":"LOBA",
      "address":"7420 Biscayne Blvd.",
      "city":"Miami",
      "state":"FL",
      "area":"Miami / Southeast Florida",
      "postal_code":"33138",
      "country":"US",
      "phone":"7865366692x",
      "lat":25.843499,
      "long":-80.184618,
      "price":2,
      "cuisines":[
                  "Mexican",
                  "Spanish"
                  ],
      "reserve_url":"http://www.opentable.com/single.aspx?rid=148015",
      "mobile_reserve_url":"http://mobile.opentable.com/opentable/?restId=148015",
      "image_url":"https://resizer.otstatic.com/v2/profiles/legacy/148015.jpg"
   },
   {
      "id":50851,
      "name":"De Rodriguez",
      "address":"101-B Ocean Drive",
      "city":"Miami Beach",
      "state":"FL",
      "area":"Miami / Southeast Florida",
      "postal_code":"33139",
      "country":"US",
      "phone":"3056726624x",
      "lat":25.769545,
      "long":-80.132225,
      "price":3,
      "cuisines":[
                  "Mexican",
                  "Cuban"
                  ],
      "reserve_url":"http://www.opentable.com/single.aspx?rid=50851",
      "mobile_reserve_url":"http://mobile.opentable.com/opentable/?restId=50851",
      "image_url":"https://resizer.otstatic.com/v2/profiles/legacy/50851.jpg"
   },
   {
      "id":116566,
      "name":"Wine Depot 555",
      "address":"555 Jefferson Avenue",
      "city":"Miami",
      "state":"FL",
      "area":"Miami / Southeast Florida",
      "postal_code":"33139",
      "country":"US",
      "phone":"3056726161x",
      "lat":25.775593,
      "long":-80.136899,
      "price":3,
      "cuisines":[
                  "Wine",
                  "Seafood"
                  ],
      "reserve_url":"http://www.opentable.com/single.aspx?rid=116566",
      "mobile_reserve_url":"http://mobile.opentable.com/opentable/?restId=116566",
      "image_url":"https://resizer.otstatic.com/v2/profiles/legacy/116566.jpg"
   },
   {
      "id":117238,
      "name":"R House Wynwood",
      "address":"2727 NW 2nd Ave.",
      "city":"Miami",
      "state":"FL",
      "area":"Miami / Southeast Florida",
      "postal_code":"33127",
      "country":"US",
      "phone":"305-576-0201x",
      "lat":25.802668,
      "long":-80.198968,
      "price":3,
      "cuisines":[
                  "Cuban",
                  "Organic"
                  ],
      "reserve_url":"http://www.opentable.com/single.aspx?rid=117238",
      "mobile_reserve_url":"http://mobile.opentable.com/opentable/?restId=117238",
      "image_url":"https://resizer.otstatic.com/v2/profiles/legacy/117238.jpg"
   },
   {
      "id":149452,
      "name":"Babylon Turkish Restaurant",
      "address":"560 Washington Avenue",
      "city":"Miami Beach",
      "state":"FL",
      "area":"Miami / Southeast Florida",
      "postal_code":"33139",
      "country":"US",
      "phone":"7862167230",
      "lat":25.775631,
      "long":-80.134244,
      "price":2,
      "cuisines":[
                  "International",
                  "Seafood"
                  ],
      "reserve_url":"http://www.opentable.com/single.aspx?rid=149452",
      "mobile_reserve_url":"http://mobile.opentable.com/opentable/?restId=149452",
      "image_url":"https://resizer.otstatic.com/v2/profiles/legacy/149452.jpg"
   },
   {
      "id":115654,
      "name":"Seasalt and Pepper",
      "address":"422 NW North River Drive",
      "city":"Miami",
      "state":"FL",
      "area":"Miami / Southeast Florida",
      "postal_code":"33128",
      "country":"US",
      "phone":"3054404200x",
      "lat":25.777679,
      "long":-80.204603,
      "price":3,
      "cuisines":[
                  "Prime Rib",
                  "Steak"
                  ],
      "reserve_url":"http://www.opentable.com/single.aspx?rid=115654",
      "mobile_reserve_url":"http://mobile.opentable.com/opentable/?restId=115654",
      "image_url":"https://resizer.otstatic.com/v2/profiles/legacy/115654.jpg"
   },
   {
      "id":110743,
      "name":"Porcao Farm to Grill",
      "address":"901 S. Miami Ave",
      "city":"Miami",
      "state":"FL",
      "area":"Miami / Southeast Florida",
      "postal_code":"33130",
      "country":"US",
      "phone":"8557672261x",
      "lat":25.764956,
      "long":-80.193743,
      "price":3,
      "cuisines":[
                  "Californian",
                  "Organic"
                  ],
      "reserve_url":"http://www.opentable.com/single.aspx?rid=110743",
      "mobile_reserve_url":"http://mobile.opentable.com/opentable/?restId=110743",
      "image_url":"https://resizer.otstatic.com/v2/profiles/legacy/110743.jpg"
   },
   {
      "id":33547,
      "name":"Graziano's Brickell",
      "address":"177 SW 7th Street",
      "city":"Miami",
      "state":"FL",
      "area":"Miami / Southeast Florida",
      "postal_code":"33130",
      "country":"US",
      "phone":"3058601426",
      "lat":25.767285,
      "long":-80.196691,
      "price":3,
      "cuisines":[
                  "Pizza",
                  "Italian"
                  ],
      "reserve_url":"http://www.opentable.com/single.aspx?rid=33547",
      "mobile_reserve_url":"http://mobile.opentable.com/opentable/?restId=33547",
      "image_url":"https://resizer.otstatic.com/v2/profiles/legacy/33547.jpg"
   },
   {
      "id":84808,
      "name":"Cafe Avanti Restaurant",
      "address":"732 41st Street",
      "city":"Miami Beach",
      "state":"FL",
      "area":"Miami / Southeast Florida",
      "postal_code":"33140",
      "country":"US",
      "phone":"3055384400",
      "lat":25.813709,
      "long":-80.131337,
      "price":3,
      "cuisines":[
                  "Seafood",
                  "Southern"
                  ],
      "reserve_url":"http://www.opentable.com/single.aspx?rid=84808",
      "mobile_reserve_url":"http://mobile.opentable.com/opentable/?restId=84808",
      "image_url":"https://resizer.otstatic.com/v2/profiles/legacy/84808.jpg"
   },
   {
      "id":26521,
      "name":"Prime Italian",
      "address":"101 Ocean Drive",
      "city":"Miami Beach",
      "state":"FL",
      "area":"Miami / Southeast Florida",
      "postal_code":"33139",
      "country":"US",
      "phone":"(305) 695-8484",
      "lat":25.769545,
      "long":-80.132225,
      "price":4,
      "cuisines":[
                  "Italian",
                  "Steak"
                  ],
      "reserve_url":"http://www.opentable.com/single.aspx?rid=26521",
      "mobile_reserve_url":"http://mobile.opentable.com/opentable/?restId=26521",
      "image_url":"https://resizer.otstatic.com/v2/profiles/legacy/26521.jpg"
   },
   {
      "id":49819,
      "name":"La Locanda",
      "address":"419 Washington Avenue",
      "city":"Miami Beach",
      "state":"FL",
      "area":"Miami / Southeast Florida",
      "postal_code":"33139",
      "country":"US",
      "phone":"3055386277",
      "lat":25.77398,
      "long":-80.134115,
      "price":2,
      "cuisines":[
                  "Mexican",
                  "Bar"
                  ],
      "reserve_url":"http://www.opentable.com/single.aspx?rid=49819",
      "mobile_reserve_url":"http://mobile.opentable.com/opentable/?restId=49819",
      "image_url":"https://resizer.otstatic.com/v2/profiles/legacy/49819.jpg"
   },
   {
      "id":102415,
      "name":"Fez",
      "address":"512 Espanola Way",
      "city":"Miami Beach",
      "state":"FL",
      "area":"Miami / Southeast Florida",
      "postal_code":"33139",
      "country":"US",
      "phone":"3056724469",
      "lat":25.78682,
      "long":-80.13328,
      "price":2,
      "cuisines":[
                  "Cuban",
                  "Spanish"
                  ],
      "reserve_url":"http://www.opentable.com/single.aspx?rid=102415",
      "mobile_reserve_url":"http://mobile.opentable.com/opentable/?restId=102415",
      "image_url":"https://resizer.otstatic.com/v2/profiles/legacy/102415.jpg"
   },
   {
      "id":152629,
      "name":"Moyé",
      "address":"80 SW 8th St.",
      "city":"Miami",
      "state":"FL",
      "area":"Miami / Southeast Florida",
      "postal_code":"33130",
      "country":"US",
      "phone":"3053725168x",
      "lat":25.765619,
      "long":-80.194783,
      "price":2,
      "cuisines":[
                  "Mexican",
                  "Seafood"
                  ],
      "reserve_url":"http://www.opentable.com/single.aspx?rid=152629",
      "mobile_reserve_url":"http://mobile.opentable.com/opentable/?restId=152629",
      "image_url":"https://resizer.otstatic.com/v2/profiles/legacy/152629.jpg"
   },
   {
      "id":150211,
      "name":"Shikany",
      "address":"251 NW 25th St.",
      "city":"Miami",
      "state":"FL",
      "area":"Miami / Southeast Florida",
      "postal_code":"33127",
      "country":"US",
      "phone":"3055730690x",
      "lat":25.800866,
      "long":-80.200187,
      "price":4,
      "cuisines":[
                  "Organic",
                  "Southern"
                  ],
      "reserve_url":"http://www.opentable.com/single.aspx?rid=150211",
      "mobile_reserve_url":"http://mobile.opentable.com/opentable/?restId=150211",
      "image_url":"https://resizer.otstatic.com/v2/profiles/legacy/150211.jpg"
   },
   {
      "id":145660,
      "name":"Sushi Couture",
      "address":"1144 Ocean Drive",
      "city":"Miami Beach",
      "state":"FL",
      "area":"Miami / Southeast Florida",
      "postal_code":"33139",
      "country":"US",
      "phone":"3055353500",
      "lat":25.782529,
      "long":-80.130475,
      "price":2,
      "cuisines":[
                  "Japanese",
                  "Sushi"
                  ],
      "reserve_url":"http://www.opentable.com/single.aspx?rid=145660",
      "mobile_reserve_url":"http://mobile.opentable.com/opentable/?restId=145660",
      "image_url":"https://resizer.otstatic.com/v2/profiles/legacy/145660.jpg"
   },
   {
      "id":31666,
      "name":"NAOE",
      "address":"661 Brickell Key Drive",
      "city":"Miami",
      "state":"FL",
      "area":"Miami / Southeast Florida",
      "postal_code":"33131",
      "country":"US",
      "phone":"3059476263x",
      "lat":25.767423,
      "long":-80.185358,
      "price":4,
      "cuisines":[
                  "Peruvian",
                  "South American"
                  ],
      "reserve_url":"http://www.opentable.com/single.aspx?rid=31666",
      "mobile_reserve_url":"http://mobile.opentable.com/opentable/?restId=31666",
      "image_url":"https://resizer.otstatic.com/v2/profiles/legacy/31666.jpg"
   },
   {
      "id":147730,
      "name":"Cantina La Veinte",
      "address":"495 Brickell Av",
      "city":"Miami",
      "state":"FL",
      "area":"Miami / Southeast Florida",
      "postal_code":"33131",
      "country":"US",
      "phone":"7866236135x",
      "lat":25.768305,
      "long":-80.188528,
      "price":3,
      "cuisines":[
                  "Mexican",
                  "International"
                  ],
      "reserve_url":"http://www.opentable.com/single.aspx?rid=147730",
      "mobile_reserve_url":"http://mobile.opentable.com/opentable/?restId=147730",
      "image_url":"https://resizer.otstatic.com/v2/profiles/legacy/147730.jpg"
   },
   {
      "id":79360,
      "name":"Bianca",
      "address":"1685 Collins Avenue",
      "city":"Miami Beach",
      "state":"FL",
      "area":"Miami / Southeast Florida",
      "postal_code":"33139",
      "country":"US",
      "phone":"3056745752",
      "lat":25.792059,
      "long":-80.12972,
      "price":4,
      "cuisines":[
                  "Italian",
                  "French"
                  ],
      "reserve_url":"http://www.opentable.com/single.aspx?rid=79360",
      "mobile_reserve_url":"http://mobile.opentable.com/opentable/?restId=79360",
      "image_url":"https://resizer.otstatic.com/v2/profiles/legacy/79360.jpg"
   },
   {
      "id":139735,
      "name":"Batch Gastropub",
      "address":"30 SW 12th St",
      "city":"Miami",
      "state":"FL",
      "area":"Miami / Southeast Florida",
      "postal_code":"33130",
      "country":"US",
      "phone":"3058085555",
      "lat":25.762475,
      "long":-80.196411,
      "price":2,
      "cuisines":[
                  "Cuban",
                  "Bistro"
                  ],
      "reserve_url":"http://www.opentable.com/single.aspx?rid=139735",
      "mobile_reserve_url":"http://mobile.opentable.com/opentable/?restId=139735",
      "image_url":"https://resizer.otstatic.com/v2/profiles/legacy/139735.jpg"
   },
   {
      "id":139204,
      "name":"BLT Prime - Trump Doral",
      "address":"4400 NW 87th Avenue",
      "city":"Miami",
      "state":"FL",
      "area":"Miami / Southeast Florida",
      "postal_code":"33178",
      "country":"US",
      "phone":"3055916606",
      "lat":25.814138,
      "long":-80.33836,
      "price":4,
      "cuisines":[
                  "Prime Rib",
                  "Bar"
                  ],
      "reserve_url":"http://www.opentable.com/single.aspx?rid=139204",
      "mobile_reserve_url":"http://mobile.opentable.com/opentable/?restId=139204",
      "image_url":"https://resizer.otstatic.com/v2/profiles/legacy/139204.jpg"
   },
   {
      "id":147868,
      "name":"Mignonette",
      "address":"210 NE 18th Street",
      "city":"Miami",
      "state":"FL",
      "area":"Miami / Southeast Florida",
      "postal_code":"33132",
      "country":"US",
      "phone":"3053744635x",
      "lat":25.793323,
      "long":-80.190472,
      "price":3,
      "cuisines":[
                  "French",
                  "Italian"
                  ],
      "reserve_url":"http://www.opentable.com/single.aspx?rid=147868",
      "mobile_reserve_url":"http://mobile.opentable.com/opentable/?restId=147868",
      "image_url":"https://resizer.otstatic.com/v2/profiles/legacy/147868.jpg"
   },
   {
      "id":148816,
      "name":"Bistro BE",
      "address":"1111 SW 1st Avenue",
      "city":"Miami",
      "state":"FL",
      "area":"Miami / Southeast Florida",
      "postal_code":"33130",
      "country":"US",
      "phone":"305 375 0975x",
      "lat":25.763323,
      "long":-80.194951,
      "price":3,
      "cuisines":[
                  "Californian",
                  "Bistro"
                  ],
      "reserve_url":"http://www.opentable.com/single.aspx?rid=148816",
      "mobile_reserve_url":"http://mobile.opentable.com/opentable/?restId=148816",
      "image_url":"https://resizer.otstatic.com/v2/profiles/legacy/148816.jpg"
   },
   {
      "id":103819,
      "name":"Orange Blossom",
      "address":"2000 Collins Avenue #7",
      "city":"Miami Beach",
      "state":"FL",
      "area":"Miami / Southeast Florida",
      "postal_code":"33139",
      "country":"US",
      "phone":"3057638983x",
      "lat":25.796407,
      "long":-80.128856,
      "price":2,
      "cuisines":[
                  "Seafood",
                  "Steak"
                  ],
      "reserve_url":"http://www.opentable.com/single.aspx?rid=103819",
      "mobile_reserve_url":"http://mobile.opentable.com/opentable/?restId=103819",
      "image_url":"https://resizer.otstatic.com/v2/profiles/legacy/103819.jpg"
   },
   {
      "id":144457,
      "name":"Ni. Do. Caffé",
      "address":"7295 Biscayne Blvd",
      "city":"Miami",
      "state":"FL",
      "area":"Miami / Southeast Florida",
      "postal_code":"33138",
      "country":"US",
      "phone":"3059607022x",
      "lat":25.842344,
      "long":-80.184119,
      "price":3,
      "cuisines":[
                  "International",
                  "Bistro"
                  ],
      "reserve_url":"http://www.opentable.com/single.aspx?rid=144457",
      "mobile_reserve_url":"http://mobile.opentable.com/opentable/?restId=144457",
      "image_url":"https://resizer.otstatic.com/v2/profiles/legacy/144457.jpg"
   }
]